City_ID,City,Country,Date,Lat,Lng,Max Temp,Humidity,Cloudiness,Wind Speed
0,Sabang,ID,2022-11-20 17:04:58,5.8933,95.3214,81.63,78,100,17.81
1,Nyurba,RU,2022-11-20 17:04:59,63.2842,118.3319,-20.42,100,70,3.87
2,Jamestown,US,2022-11-20 17:02:58,42.097,-79.2353,23.72,76,100,14.97
3,Talnakh,RU,2022-11-20 17:04:59,69.4865,88.3972,-16.22,95,96,4.45
4,San Vicente De Canete,PE,2022-11-20 17:05:00,-13.0751,-76.3835,70.68,69,66,8.68
5,Khatanga,RU,2022-11-20 17:05:00,71.9667,102.5,-31.45,100,90,3.87
6,Albany,US,2022-11-20 17:02:48,42.6001,-73.9662,33.03,34,3,7.0
7,Northam,GB,2022-11-20 17:05:01,51.0333,-4.2167,52.61,72,42,19.15
8,Rikitea,PF,2022-11-20 17:05:02,-23.1203,-134.9692,71.44,74,93,11.07
9,Kavaratti,IN,2022-11-20 17:05:02,10.5669,72.642,80.65,58,10,3.15
10,Kapaa,US,2022-11-20 17:01:04,22.0752,-159.319,74.12,90,18,3.0
11,Porto Novo,BJ,2022-11-20 17:05:03,6.4965,2.6036,81.73,78,84,9.78
12,Olafsvik,IS,2022-11-20 17:05:04,64.8945,-23.7142,43.36,80,74,16.6
13,Bredasdorp,ZA,2022-11-20 17:05:05,-34.5322,20.0403,64.35,62,20,9.64
14,Ayan,RU,2022-11-20 17:05:05,56.45,138.1667,27.82,94,100,12.73
15,Kampong Thum,KH,2022-11-20 17:05:05,12.7111,104.8887,72.95,98,100,5.46
16,Sakakah,SA,2022-11-20 17:05:06,29.9697,40.2064,62.13,48,0,7.49
17,West Wendover,US,2022-11-20 17:05:06,40.7391,-114.0733,22.21,63,0,3.44
18,Qaanaaq,GL,2022-11-20 17:05:07,77.484,-69.3632,-6.34,52,8,1.1
19,Vaini,TO,2022-11-20 17:05:07,-21.2,-175.2,76.44,73,100,5.66
20,Coahuayana,MX,2022-11-20 17:05:07,18.7333,-103.6833,84.69,58,96,2.55
21,Svobodnyy,RU,2022-11-20 17:05:08,51.4,128.1333,3.6,92,47,7.05
22,Atuona,PF,2022-11-20 17:01:03,-9.8,-139.0333,77.34,72,29,11.16
23,Broome,US,2022-11-20 17:05:09,42.2506,-75.833,30.47,51,75,20.71
24,Beringovskiy,RU,2022-11-20 17:05:09,63.05,179.3167,-0.87,86,46,22.79
25,Butaritari,KI,2022-11-20 17:00:41,3.0707,172.7902,80.13,80,15,12.06
26,Tura,IN,2022-11-20 17:05:10,25.5198,90.2201,61.02,74,10,2.82
27,Ajdabiya,LY,2022-11-20 17:05:10,30.7554,20.2263,72.3,19,95,9.17
28,Pisco,PE,2022-11-20 17:01:49,-13.7,-76.2167,68.02,78,61,10.09
29,Ushuaia,AR,2022-11-20 17:05:11,-54.8,-68.3,49.66,62,40,8.05
30,Praid,RO,2022-11-20 17:05:11,46.55,25.1333,42.31,93,100,1.43
31,Tungor,RU,2022-11-20 17:05:11,53.3808,142.9564,31.6,87,100,11.39
32,Bluff,NZ,2022-11-20 17:05:12,-46.6,168.3333,53.64,91,97,6.26
33,Knokke-Heist,BE,2022-11-20 17:05:13,51.3333,3.3333,51.03,76,64,5.99
34,Abu Dhabi,AE,2022-11-20 17:02:43,24.4667,54.3667,79.97,72,20,1.99
35,Mataura,NZ,2022-11-20 17:05:13,-46.1927,168.8643,51.06,99,95,2.66
36,Hobart,AU,2022-11-20 17:05:14,-42.8794,147.3294,47.26,78,91,17.27
37,Arraial Do Cabo,BR,2022-11-20 17:03:00,-22.9661,-42.0278,78.66,69,40,13.8
38,Gelemso,ET,2022-11-20 17:05:14,8.8167,40.5167,62.55,33,4,4.05
39,Vardo,NO,2022-11-20 17:05:15,70.3705,31.1107,33.78,86,100,6.91
40,Harper,LR,2022-11-20 17:05:15,4.375,-7.7169,78.98,83,97,5.97
41,Mbandaka,CD,2022-11-20 17:05:15,0.0487,18.2603,74.52,86,88,2.53
42,Busselton,AU,2022-11-20 17:05:16,-33.65,115.3333,50.99,79,0,11.72
43,Kavieng,PG,2022-11-20 17:05:16,-2.5744,150.7967,80.96,69,90,11.32
44,New Norfolk,AU,2022-11-20 17:06:17,-42.7826,147.0587,46.92,73,91,8.99
45,Isangel,VU,2022-11-20 17:06:17,-19.55,169.2667,77.59,84,3,3.76
46,Tasiilaq,GL,2022-11-20 17:06:18,65.6145,-37.6368,39.36,83,100,17.58
47,Codrington,AU,2022-11-20 17:06:19,-38.2667,141.9667,45.14,80,100,23.29
48,Barrow,US,2022-11-20 17:06:19,71.2906,-156.7887,24.82,74,100,16.11
49,Kaitangata,NZ,2022-11-20 17:06:20,-46.2817,169.8464,50.04,98,48,0.4
50,Noyabrsk,RU,2022-11-20 17:06:20,63.1994,75.4507,-22.88,100,26,6.31
51,Punta Arenas,CL,2022-11-20 17:06:21,-53.15,-70.9167,55.51,44,75,28.77
52,Torbay,CA,2022-11-20 17:05:37,47.6666,-52.7314,40.28,79,58,1.99
53,Kudahuvadhoo,MV,2022-11-20 17:06:21,2.6708,72.8944,81.84,74,31,15.21
54,Sisophon,KH,2022-11-20 17:06:21,13.5859,102.9737,73.65,94,100,1.95
55,Kununurra,AU,2022-11-20 17:06:23,-15.7667,128.7333,78.78,94,100,0.0
56,Luderitz,NA,2022-11-20 17:06:23,-26.6481,15.1594,67.14,67,100,20.42
57,Waterloo,CA,2022-11-20 17:06:02,43.4668,-80.5164,24.03,63,40,19.57
58,Rio Grande,BR,2022-11-20 17:06:24,-32.035,-52.0986,89.71,64,100,16.37
59,Hirara,JP,2022-11-20 17:06:25,24.8,125.2833,76.06,74,36,14.41
60,Amazar,RU,2022-11-20 17:06:25,53.858,120.875,2.03,95,96,3.78
61,Port Alfred,ZA,2022-11-20 17:06:26,-33.5906,26.891,70.18,74,51,1.99
62,Lata,PT,2022-11-20 17:06:26,40.1629,-8.3327,62.08,97,96,4.79
63,Hambantota,LK,2022-11-20 17:06:27,6.1241,81.1185,77.43,86,13,4.27
64,Yellowknife,CA,2022-11-20 17:06:27,62.456,-114.3525,25.32,80,75,6.91
65,Tuktoyaktuk,CA,2022-11-20 17:06:28,69.4541,-133.0374,21.2,93,100,13.8
66,Wysokie Mazowieckie,PL,2022-11-20 17:06:28,52.9166,22.5171,23.32,94,37,8.72
67,Pevek,RU,2022-11-20 17:06:29,69.7008,170.3133,-24.59,98,100,9.31
68,Cape Town,ZA,2022-11-20 17:05:27,-33.9258,18.4232,69.12,57,2,8.99
69,Altona,DE,2022-11-20 17:06:29,53.55,9.9333,36.14,89,75,2.3
70,Kruisfontein,ZA,2022-11-20 17:06:30,-34.0033,24.7314,61.29,64,24,5.57
71,Srednekolymsk,RU,2022-11-20 17:06:31,67.45,153.6833,-31.65,100,47,5.17
72,Itoman,JP,2022-11-20 17:06:31,26.1247,127.6694,75.22,83,40,12.66
73,Seoul,KR,2022-11-20 17:05:23,37.5683,126.9778,49.44,58,3,1.25
74,Cabo San Lucas,MX,2022-11-20 17:04:39,22.8909,-109.9124,79.52,61,20,4.61
75,Esperance,AU,2022-11-20 17:06:32,-33.8667,121.9,55.56,68,100,9.62
76,Provideniya,RU,2022-11-20 17:06:32,64.3833,-173.3,21.33,91,100,11.25
77,La Rioja,ES,2022-11-20 17:06:33,42.25,-2.5,49.78,76,98,2.17
78,Nikolskoye,RU,2022-11-20 17:06:33,59.7035,30.7861,24.69,94,98,5.21
79,Necochea,AR,2022-11-20 17:06:34,-38.5473,-58.7368,57.99,97,100,13.96
80,Juegang,CN,2022-11-20 17:06:34,32.3174,121.1855,60.49,90,84,8.52
81,Victoria,HK,2022-11-20 17:04:19,22.2855,114.1577,76.32,77,38,5.99
82,Bethel,US,2022-11-20 17:06:35,41.3712,-73.414,37.2,39,75,21.85
83,Sabzevar,IR,2022-11-20 17:06:35,36.2126,57.6819,55.56,37,0,5.59
84,Bograd,RU,2022-11-20 17:06:36,54.2344,90.8328,2.3,81,37,4.03
85,Port Elizabeth,ZA,2022-11-20 17:02:45,-33.918,25.5701,63.77,72,32,4.94
86,Bambous Virieux,MU,2022-11-20 17:06:36,-20.3428,57.7575,76.21,69,13,6.46
87,Igis,CH,2022-11-20 17:06:37,46.9453,9.5722,40.68,87,61,2.57
88,Fortuna,US,2022-11-20 17:06:37,40.5982,-124.1573,48.54,81,0,10.36
89,Loukhi,RU,2022-11-20 17:06:37,66.0764,33.0381,21.54,97,75,0.58
90,Lagoa,PT,2022-11-20 17:07:38,39.05,-27.9833,64.38,93,93,23.8
91,Takoradi,GH,2022-11-20 17:07:38,4.8845,-1.7554,81.54,75,93,8.81
92,Aksarka,RU,2022-11-20 17:07:39,66.5606,67.7975,5.13,95,100,13.29
93,Taoudenni,ML,2022-11-20 17:07:39,22.6783,-3.9836,83.34,9,0,13.22
94,Sitka,US,2022-11-20 17:07:40,57.0531,-135.33,46.29,76,100,10.36
95,Pangnirtung,CA,2022-11-20 17:07:40,66.1451,-65.7125,-1.55,62,22,6.04
96,Aksu,CN,2022-11-20 17:07:41,41.1231,80.2644,36.68,37,8,2.73
97,Beni Suef,EG,2022-11-20 17:07:41,29.0731,31.0979,71.58,33,37,6.67
98,Saint-Joseph,RE,2022-11-20 17:07:41,-21.3667,55.6167,75.58,79,42,7.2
99,Yarkovo,RU,2022-11-20 17:07:42,57.4028,67.0786,13.87,95,100,4.29
100,Zhucheng,CN,2022-11-20 17:07:42,35.9947,119.3975,57.7,84,99,4.27
101,Buluang,PH,2022-11-20 17:07:42,13.3068,123.3425,76.35,93,83,2.77
102,Monte Alegre,BR,2022-11-20 17:03:55,-2.0078,-54.0692,93.7,39,15,6.24
103,Mitsamiouli,KM,2022-11-20 17:07:43,-11.3847,43.2844,78.1,79,5,12.12
104,Lorengau,PG,2022-11-20 17:07:43,-2.0226,147.2712,81.93,73,85,8.41
105,Upernavik,GL,2022-11-20 17:07:44,72.7868,-56.1549,13.71,94,100,13.09
106,San Cristobal,VE,2022-11-20 17:06:58,7.7669,-72.225,82.18,54,62,4.23
107,Kuito,AO,2022-11-20 17:07:44,-12.3833,16.9333,67.53,61,41,4.59
108,Kirovskiy,RU,2022-11-20 17:07:45,45.0917,133.5136,29.37,98,100,1.9
109,Bhagwantnagar,IN,2022-11-20 17:07:45,26.2333,80.75,66.65,55,0,5.73
110,Faanui,PF,2022-11-20 17:07:46,-16.4833,-151.75,78.58,75,100,18.41
111,Klyuchi,RU,2022-11-20 17:07:46,52.2667,79.1667,7.66,76,11,5.84
112,Villanueva,HN,2022-11-20 17:06:20,15.3167,-88.0,85.19,70,40,4.61
113,Kodiak,US,2022-11-20 17:07:47,57.79,-152.4072,38.71,93,100,5.75
114,Tawau,MY,2022-11-20 17:07:47,4.2498,117.8871,78.8,85,90,2.68
115,Hermanus,ZA,2022-11-20 17:07:47,-34.4187,19.2345,67.8,69,3,9.04
116,Shahrud,IR,2022-11-20 17:07:48,36.4182,54.9763,49.69,54,3,5.01
117,Ilulissat,GL,2022-11-20 17:07:48,69.2167,-51.1,21.22,58,100,2.3
118,Henties Bay,NA,2022-11-20 17:07:49,-22.116,14.2845,64.26,72,97,10.94
119,Pontianak,ID,2022-11-20 17:07:49,-0.0333,109.3333,76.98,94,40,3.44
120,Loma Bonita,PA,2022-11-20 17:07:49,8.3833,-80.1667,85.55,70,20,3.65
121,Nizhniy Tsasuchey,RU,2022-11-20 17:07:50,50.5167,115.1333,-2.6,95,15,4.45
122,Kasane,BW,2022-11-20 17:07:50,-17.8167,25.15,86.95,17,3,6.22
123,Alofi,NU,2022-11-20 17:04:05,-19.0595,-169.9187,76.64,80,78,9.17
124,Eenhana,NA,2022-11-20 17:07:50,-17.4667,16.3333,86.4,29,94,7.45
125,Saint George,US,2022-11-20 17:07:44,37.1041,-113.5841,41.25,41,0,0.0
126,Jiangyou,CN,2022-11-20 17:07:51,31.7667,104.7167,59.05,73,100,4.14
127,Palana,RU,2022-11-20 17:07:51,59.1167,159.9667,21.54,90,100,10.78
128,Hilo,US,2022-11-20 17:07:52,19.7297,-155.09,70.25,91,75,5.75
129,Alice Springs,AU,2022-11-20 17:07:52,-23.7,133.8833,63.95,59,89,5.75
130,Mazyr,BY,2022-11-20 17:07:53,52.0495,29.2456,26.35,97,100,10.33
131,Leeton,AU,2022-11-20 17:07:53,-34.5667,146.4,54.9,59,85,13.24
132,Nemuro,JP,2022-11-20 17:07:54,43.3236,145.575,49.8,70,100,18.32
133,Markala,ML,2022-11-20 17:07:54,13.7021,-6.0659,91.54,16,88,7.87
134,Maniitsoq,GL,2022-11-20 17:08:54,65.4167,-52.9,23.43,76,100,6.04
135,Severo-Kurilsk,RU,2022-11-20 17:08:55,50.6789,156.125,31.96,71,23,4.61
136,Tiksi,RU,2022-11-20 17:08:55,71.6872,128.8694,-12.03,99,100,3.71
137,Kahului,US,2022-11-20 17:08:55,20.8947,-156.47,76.84,81,20,8.05
138,Lebu,CL,2022-11-20 17:08:56,-37.6167,-73.65,56.79,56,0,25.61
139,Conakry,GN,2022-11-20 17:08:56,9.538,-13.6773,82.18,66,30,9.91
140,Camocim,BR,2022-11-20 17:08:57,-2.9022,-40.8411,87.53,58,35,16.93
141,Matveyevka,RU,2022-11-20 17:08:57,52.15,56.1833,19.06,95,100,6.02
142,Sidi Ali,DZ,2022-11-20 17:08:58,36.0998,0.4206,58.48,64,4,12.26
143,Lompoc,US,2022-11-20 17:08:58,34.6391,-120.4579,66.78,34,0,11.5
144,Ahipara,NZ,2022-11-20 17:08:59,-35.1667,173.1667,60.64,93,98,10.47
145,Gat,IL,2022-11-20 17:08:59,31.61,34.7642,72.39,28,3,18.41
146,Dasoguz,TM,2022-11-20 17:08:59,41.8363,59.9666,51.28,49,35,7.76
147,Whitianga,NZ,2022-11-20 17:09:00,-36.8333,175.7,61.09,86,81,7.85
148,Nsanje,MW,2022-11-20 17:09:00,-16.92,35.262,86.47,58,4,12.57
149,Mar Del Plata,AR,2022-11-20 17:06:30,-38.0023,-57.5575,68.09,94,100,18.41
150,Manta,EC,2022-11-20 17:09:01,-0.95,-80.7333,76.78,69,0,12.66
151,Chiari,IT,2022-11-20 17:09:01,45.5359,9.9304,49.15,44,14,1.92
152,Atambua,ID,2022-11-20 17:09:02,-9.1061,124.8925,74.46,87,100,2.17
153,Norman Wells,CA,2022-11-20 17:09:02,65.282,-126.8329,26.64,86,75,16.11
154,Vesoul,FR,2022-11-20 17:09:03,47.5833,5.8333,45.41,87,100,16.8
155,Krasnokamensk,RU,2022-11-20 17:09:03,50.0979,118.0369,-7.15,97,8,5.17
156,Sao Filipe,CV,2022-11-20 17:09:04,14.8961,-24.4956,77.97,65,67,14.2
157,Tezu,IN,2022-11-20 17:09:04,27.9167,96.1667,60.91,28,45,5.32
158,Strezhevoy,RU,2022-11-20 17:09:04,60.7333,77.5889,-15.38,98,19,6.2
159,Ostersund,SE,2022-11-20 17:09:05,63.1792,14.6357,18.05,100,100,3.44
160,Tshikapa,CD,2022-11-20 17:09:05,-6.4167,20.8,72.05,92,78,2.53
161,Whitehorse,CA,2022-11-20 17:09:06,60.7161,-135.0538,28.02,93,100,21.0
162,Ambon,ID,2022-11-20 17:09:06,-3.6954,128.1814,77.14,94,40,6.91
163,Faya,SA,2022-11-20 17:09:07,18.3851,42.4509,63.12,49,31,11.72
164,Lappeenranta,FI,2022-11-20 17:09:07,61.0587,28.1887,27.79,93,100,5.75
165,Tursunzoda,TJ,2022-11-20 17:09:08,38.5144,68.2333,50.09,42,27,6.06
166,Abha,SA,2022-11-20 17:09:08,18.2164,42.5053,62.85,34,20,13.8
167,Rodrigues Alves,BR,2022-11-20 17:09:08,-7.738,-72.6509,97.77,36,31,4.52
168,Carnarvon,AU,2022-11-20 17:09:09,-24.8667,113.6333,69.46,69,0,20.85
169,Saskylakh,RU,2022-11-20 17:09:09,71.9167,114.0833,-18.53,99,98,1.32
170,Byron Bay,AU,2022-11-20 17:06:41,-28.65,153.6167,70.52,50,89,7.18
171,Chino,US,2022-11-20 17:08:09,34.0122,-117.6889,68.81,20,0,9.22
172,Narsaq,GL,2022-11-20 17:09:10,60.9167,-46.05,26.82,82,100,0.38
173,Cheyenne,US,2022-11-20 17:06:04,41.14,-104.8203,38.77,30,0,7.0
174,Cherskiy,RU,2022-11-20 17:09:10,68.75,161.3,-13.49,98,100,8.43
175,Dingle,PH,2022-11-20 17:09:11,10.9995,122.6711,76.08,91,98,5.44
176,High Level,CA,2022-11-20 17:10:11,58.5169,-117.136,21.16,74,100,4.9
177,Omboue,GA,2022-11-20 17:10:12,-1.5746,9.2618,76.08,89,100,6.96
178,Bengkulu,ID,2022-11-20 17:10:12,-3.8004,102.2655,74.71,90,77,5.41
179,Avarua,CK,2022-11-20 17:10:12,-21.2078,-159.775,71.65,73,34,4.61
180,Klaksvik,FO,2022-11-20 17:10:13,62.2266,-6.589,47.32,88,100,28.66
181,Havre-Saint-Pierre,CA,2022-11-20 17:10:13,50.2334,-63.5986,23.36,80,100,16.11
182,Uzunovo,RU,2022-11-20 17:10:14,54.5386,38.6173,22.3,97,100,4.36
183,Taungdwingyi,MM,2022-11-20 17:10:14,20.0167,95.55,71.98,57,8,3.96
184,Houlton,US,2022-11-20 17:10:15,46.1262,-67.8403,30.61,70,100,12.66
185,Honiara,SB,2022-11-20 17:10:15,-9.4333,159.95,79.56,85,79,5.14
186,Lasa,IT,2022-11-20 17:10:16,46.6166,10.7002,36.01,79,34,3.98
187,Daru,PG,2022-11-20 17:10:16,-9.0763,143.2092,78.33,87,97,1.28
188,Luba,GQ,2022-11-20 17:10:17,3.4568,8.5547,80.29,83,95,9.17
189,Melville,US,2022-11-20 17:10:18,40.7934,-73.4151,38.68,34,0,16.11
190,Boyolangu,ID,2022-11-20 17:10:18,-8.1181,111.8935,76.98,87,85,2.95
191,East London,ZA,2022-11-20 17:10:19,-33.0153,27.9116,66.7,71,45,9.24
192,Aasiaat,GL,2022-11-20 17:10:19,68.7098,-52.8699,17.51,94,100,4.92
193,Caravelas,BR,2022-11-20 17:06:14,-17.7125,-39.2481,75.74,86,100,5.5
194,Tuatapere,NZ,2022-11-20 17:10:20,-46.1333,167.6833,50.83,96,41,4.7
195,Katherine,AU,2022-11-20 17:10:20,-14.4667,132.2667,79.12,89,100,4.61
196,Kungurtug,RU,2022-11-20 17:10:21,50.5994,97.5228,11.48,84,100,1.34
197,Makakilo City,US,2022-11-20 17:10:21,21.3469,-158.0858,75.18,70,0,8.05
198,Crotone,IT,2022-11-20 17:10:22,39.0851,17.1178,57.2,85,82,12.24
199,Vestmannaeyjar,IS,2022-11-20 17:10:22,63.4427,-20.2734,45.59,65,40,20.71
200,Hithadhoo,MV,2022-11-20 17:10:23,-0.6,73.0833,81.16,76,6,8.12
201,Urumqi,CN,2022-11-20 17:10:23,43.801,87.6005,25.75,100,100,4.47
202,Geraldton,AU,2022-11-20 17:08:01,-28.7667,114.6,61.21,72,1,13.8
203,Mudanjiang,CN,2022-11-20 17:10:23,44.5833,129.6,28.71,72,69,1.34
204,Thompson,CA,2022-11-20 17:10:24,55.7435,-97.8558,21.36,93,100,11.5
205,Puerto Ayora,EC,2022-11-20 17:10:24,-0.7393,-90.3518,76.96,98,97,5.99
206,Temyasovo,RU,2022-11-20 17:10:25,52.9933,58.1014,6.66,97,93,0.83
207,Chokurdakh,RU,2022-11-20 17:10:25,70.6333,147.9167,-30.53,100,98,5.93
208,Almaznyy,RU,2022-11-20 17:10:25,48.0448,40.045,41.77,79,100,9.13
209,Paracuru,BR,2022-11-20 17:10:26,-3.41,-39.0306,82.11,61,35,16.71
210,Yeppoon,AU,2022-11-20 17:10:26,-23.1333,150.7333,76.78,94,95,2.15
211,Westport,US,2022-11-20 17:09:15,41.1415,-73.3579,39.04,34,40,25.32
212,Paita,PE,2022-11-20 17:10:27,-5.0892,-81.1144,72.39,64,1,12.55
213,Toktogul,KG,2022-11-20 17:10:27,41.8708,72.9402,37.49,94,96,2.33
214,Flinders,AU,2022-11-20 17:10:28,-34.5833,150.8552,65.25,48,29,7.0
215,Guerrero Negro,MX,2022-11-20 17:10:06,27.9769,-114.0611,65.64,36,0,1.25
216,Brokopondo,SR,2022-11-20 17:10:28,4.75,-55.1667,87.94,50,65,1.48
217,Itupiranga,BR,2022-11-20 17:08:52,-5.1347,-49.3267,88.12,68,70,4.07
218,Dicabisagan,PH,2022-11-20 17:10:29,17.0818,122.4157,76.91,90,93,2.84
219,Airai,TL,2022-11-20 17:10:29,-8.9266,125.4092,61.38,92,100,1.79
220,Tabas,IR,2022-11-20 17:07:46,33.5959,56.9244,61.56,33,0,6.35
221,Monte Santo De Minas,BR,2022-11-20 17:10:30,-21.1897,-46.9803,81.0,42,40,3.87
222,Mackay,AU,2022-11-20 17:10:30,-21.15,149.2,77.97,88,95,10.0
223,Te Anau,NZ,2022-11-20 17:10:31,-45.4167,167.7167,48.74,95,39,1.66
224,Douglas,US,2022-11-20 17:06:20,41.3,-96.167,41.67,40,0,21.85
225,Hofn,IS,2022-11-20 17:10:31,64.2539,-15.2082,44.96,85,100,7.45
226,Banikoara,BJ,2022-11-20 17:11:32,11.2985,2.4386,86.14,18,100,4.76
227,Careiro Da Varzea,BR,2022-11-20 17:11:32,-3.2003,-59.8119,93.83,28,7,3.18
228,Hasaki,JP,2022-11-20 17:11:33,35.7333,140.8333,54.28,70,100,14.85
229,Verkhnevilyuysk,RU,2022-11-20 17:11:33,63.4453,120.3167,-23.51,100,31,2.68
230,Port Blair,IN,2022-11-20 17:11:33,11.6667,92.75,79.99,79,99,5.26
231,Mingshui,CN,2022-11-20 17:11:33,36.7167,117.5,55.83,71,100,1.5
232,Thabazimbi,ZA,2022-11-20 17:11:34,-24.5917,27.4116,76.21,18,88,1.14
233,Qaqortoq,GL,2022-11-20 17:11:34,60.7167,-46.0333,23.95,86,100,0.54
234,Cidreira,BR,2022-11-20 17:11:35,-30.1811,-50.2056,74.88,67,43,19.91
235,Khorinsk,RU,2022-11-20 17:11:35,52.1657,109.7726,0.07,96,9,1.68
236,Jumla,NP,2022-11-20 17:11:35,29.2747,82.1838,41.76,50,2,4.94
237,Ancud,CL,2022-11-20 17:11:36,-41.8697,-73.8203,56.17,49,0,5.46
238,Yanam,IN,2022-11-20 17:11:36,16.7333,82.2167,77.59,69,100,7.74
239,Natal,BR,2022-11-20 17:08:12,-5.795,-35.2094,86.65,58,40,18.41
240,Kimbe,PG,2022-11-20 17:11:37,-5.5502,150.1429,76.3,92,82,1.41
241,Kieta,PG,2022-11-20 17:11:37,-6.2167,155.6333,78.06,82,14,0.76
242,Kargasok,RU,2022-11-20 17:11:38,59.0556,80.8572,-9.18,96,89,11.7
243,Uyemskiy,RU,2022-11-20 17:11:38,64.4743,40.8524,24.85,100,100,4.47
244,Saint Anthony,US,2022-11-20 17:11:39,45.0205,-93.218,27.12,63,0,11.5
245,Kangaatsiaq,GL,2022-11-20 17:11:39,68.3065,-53.4641,22.1,91,100,2.93
246,Dikson,RU,2022-11-20 17:11:39,73.5069,80.5464,-18.98,92,49,5.91
247,Methoni,GR,2022-11-20 17:11:40,36.8197,21.7049,71.46,81,100,20.47
248,Elk City,US,2022-11-20 17:11:40,35.412,-99.4043,39.42,45,0,13.8
249,Roald,NO,2022-11-20 17:11:41,62.5833,6.1333,39.76,64,0,10.36
250,Thurso,GB,2022-11-20 17:11:41,58.5927,-3.5259,44.85,89,100,10.51
251,Antalaha,MG,2022-11-20 17:11:41,-14.9003,50.2788,74.01,82,2,5.93
252,Calama,CL,2022-11-20 17:11:42,-22.4667,-68.9333,75.69,10,0,19.57
253,Mandera,KE,2022-11-20 17:11:42,3.9366,41.867,89.46,40,38,4.72
254,Noumea,NC,2022-11-20 17:11:42,-22.2763,166.4572,75.99,99,38,6.89
255,Ribeira Grande,PT,2022-11-20 17:11:43,38.5167,-28.7,68.4,88,75,18.01
256,Tabuk,PH,2022-11-20 17:11:43,17.4189,121.4443,73.18,85,89,3.31
257,Laranjeiras Do Sul,BR,2022-11-20 17:10:00,-25.4078,-52.4161,81.27,49,37,6.62
258,Loandjili,CG,2022-11-20 17:11:44,-4.7561,11.8578,77.04,85,79,4.34
259,Georgetown,MY,2022-11-20 17:11:35,5.4112,100.3354,82.89,77,100,6.6
260,Saint-Philippe,RE,2022-11-20 17:11:44,-21.3585,55.7679,76.59,78,64,12.06
261,Moranbah,AU,2022-11-20 17:11:45,-22.0016,148.0466,77.81,75,94,10.76
262,La Ronge,CA,2022-11-20 17:11:45,55.1001,-105.2842,21.42,83,100,7.7
263,Kingman,US,2022-11-20 17:11:46,35.1894,-114.053,51.13,17,0,15.99
264,Asasa,ET,2022-11-20 17:11:46,7.1,39.2,57.24,57,82,0.43
265,Dossor,KZ,2022-11-20 17:11:47,47.5272,52.9811,45.05,95,100,8.3
266,Kiama,AU,2022-11-20 17:11:47,-34.6833,150.8667,65.44,46,22,5.01
267,Katsuura,JP,2022-11-20 17:11:47,35.1333,140.3,64.11,68,100,9.48
268,Bosaso,SO,2022-11-20 17:06:54,11.2842,49.1816,79.23,68,91,6.8
269,Sao Joao Da Barra,BR,2022-11-20 17:11:48,-21.6403,-41.0511,86.09,68,82,11.3
270,Tilichiki,RU,2022-11-20 17:11:48,60.4667,166.1,-2.47,91,88,7.56
271,Kabare,CD,2022-11-20 17:11:49,-2.4683,28.8242,59.83,95,97,2.68
272,Homer,US,2022-11-20 17:11:49,59.6425,-151.5483,33.69,86,100,0.0
273,Jinotega,NI,2022-11-20 17:12:49,13.0917,-86.0018,68.68,82,93,7.31
274,Sechura,PE,2022-11-20 17:12:50,-5.5569,-80.8222,77.36,52,3,9.78
275,Nome,US,2022-11-20 17:12:50,64.5011,-165.4064,32.07,80,75,3.44
276,Nanortalik,GL,2022-11-20 17:12:51,60.1432,-45.2371,29.97,85,100,14.38
277,Biak,ID,2022-11-20 17:12:51,-0.9131,122.8766,76.46,85,100,2.84
278,Nouakchott,MR,2022-11-20 17:12:52,18.0858,-15.9785,91.33,41,0,12.24
279,Clyde River,CA,2022-11-20 17:12:52,70.4692,-68.5914,-16.26,85,3,2.75
280,Grand Gaube,MU,2022-11-20 17:12:52,-20.0064,57.6608,76.37,68,5,1.99
281,Asfi,MA,2022-11-20 17:12:53,32.2994,-9.2372,68.32,65,12,22.24
282,Tazovskiy,RU,2022-11-20 17:12:53,67.4667,78.7,-22.18,99,77,5.23
283,Cimislia,MD,2022-11-20 17:12:54,46.52,28.7842,35.74,93,100,3.02
284,Fort Nelson,CA,2022-11-20 17:12:54,58.8053,-122.7002,17.94,86,98,1.01
285,Poum,NC,2022-11-20 17:12:55,-20.2333,164.0167,77.59,81,30,7.7
286,Cayenne,GF,2022-11-20 17:12:55,4.9333,-52.3333,86.04,70,0,13.8
287,Castro,BR,2022-11-20 17:12:55,-24.7911,-50.0119,81.27,39,11,8.01
288,Jining,CN,2022-11-20 17:12:56,35.405,116.5814,54.68,79,100,3.74
289,Pemangkat,ID,2022-11-20 17:12:56,1.1667,108.9667,79.11,85,94,7.05
290,Novo Aripuana,BR,2022-11-20 17:12:57,-5.1206,-60.3797,98.74,33,38,3.06
291,Sadovoye,RU,2022-11-20 17:12:57,47.7764,44.5089,45.18,67,100,3.91
292,Baykit,RU,2022-11-20 17:12:58,61.67,96.37,-0.18,100,99,1.28
293,Abbeville,FR,2022-11-20 17:12:58,50.1,1.8333,53.56,80,54,14.56
294,Inuvik,CA,2022-11-20 17:12:58,68.3499,-133.7218,23.76,93,75,6.91
295,Awjilah,LY,2022-11-20 17:12:59,29.1081,21.2869,71.62,19,95,8.5
296,Karema,TZ,2022-11-20 17:12:59,-6.8205,30.4389,73.85,79,52,1.9
297,Kenai,US,2022-11-20 17:13:00,60.5544,-151.2583,37.15,78,100,5.75
298,Doha,QA,2022-11-20 17:13:00,25.2867,51.5333,75.18,60,0,14.97
299,Kasongo,CD,2022-11-20 17:13:00,-4.45,26.6667,74.57,72,58,2.73
300,Saldanha,ZA,2022-11-20 17:12:26,-33.0117,17.9442,62.87,79,12,23.11
301,Mchinji,MW,2022-11-20 17:08:10,-13.7984,32.8802,79.38,37,63,5.77
302,Kipini,KE,2022-11-20 17:13:01,-2.5257,40.5262,78.85,88,95,7.74
303,Montecristi,EC,2022-11-20 17:13:01,-1.05,-80.6667,75.02,69,0,12.66
304,Ambilobe,MG,2022-11-20 17:13:02,-13.2,49.05,77.79,78,51,1.72
305,Wucheng,CN,2022-11-20 17:13:02,29.6008,118.175,57.04,93,2,2.17
306,Port-Gentil,GA,2022-11-20 17:13:03,-0.7193,8.7815,76.96,88,75,5.75
307,Sept-Iles,CA,2022-11-20 17:09:03,50.2001,-66.3821,27.05,84,100,14.97
308,Half Moon Bay,US,2022-11-20 17:11:43,37.4636,-122.4286,57.61,63,20,6.91
309,Ahuimanu,US,2022-11-20 17:13:03,21.4447,-157.8378,76.35,76,20,6.91
310,Aripuana,BR,2022-11-20 17:13:04,-9.1667,-60.6333,90.63,48,63,2.89
311,Tommot,RU,2022-11-20 17:13:05,58.9564,126.2925,-8.5,100,98,2.08
312,Can,TR,2022-11-20 17:13:05,40.0333,27.0524,65.97,63,100,14.05
313,Shingu,JP,2022-11-20 17:13:06,33.7333,135.9833,63.3,92,100,12.26
314,Pundaguitan,PH,2022-11-20 17:13:06,6.3711,126.1689,81.9,74,100,7.78
315,Chatham,GB,2022-11-20 17:13:07,51.3789,0.5279,49.86,85,21,3.0
316,Usogorsk,RU,2022-11-20 17:13:07,63.4106,48.6872,25.27,96,98,5.79
317,Tocopilla,CL,2022-11-20 17:13:08,-22.092,-70.1979,69.44,69,8,6.29
318,Mayumba,GA,2022-11-20 17:13:08,-3.432,10.6554,75.99,89,100,3.78
319,Longyearbyen,SJ,2022-11-20 17:13:08,78.2186,15.6401,35.44,80,75,10.36
320,Walvis Bay,NA,2022-11-20 17:13:09,-22.9575,14.5053,62.1,55,93,16.91
321,Presidencia Roque Saenz Pena,AR,2022-11-20 17:14:09,-26.7852,-60.4388,72.19,86,100,8.7
322,Buala,SB,2022-11-20 17:14:09,-8.145,159.5921,79.88,75,49,8.16
323,Conceicao Do Araguaia,BR,2022-11-20 17:12:04,-8.2578,-49.2647,85.55,64,25,3.36
324,Goundam,ML,2022-11-20 17:14:10,16.4145,-3.6708,89.96,9,95,10.87
325,Erenhot,CN,2022-11-20 17:14:10,43.6475,111.9767,22.96,33,0,7.09
326,Menongue,AO,2022-11-20 17:14:11,-14.6585,17.691,82.67,21,55,7.23
327,Duluth,US,2022-11-20 17:14:11,46.7833,-92.1066,22.06,75,100,10.36
328,Wattegama,LK,2022-11-20 17:14:12,6.7989,81.4808,74.23,90,83,0.85
329,Magadan,RU,2022-11-20 17:13:03,59.5667,150.8,11.19,75,100,7.02
330,Maceio,BR,2022-11-20 17:12:10,-9.6658,-35.7353,87.24,54,20,14.97
331,Debre Tabor,ET,2022-11-20 17:14:13,11.85,38.0167,57.58,54,97,0.36
332,Kulhudhuffushi,MV,2022-11-20 17:14:13,6.6221,73.07,76.33,90,100,8.63
333,Igrim,RU,2022-11-20 17:14:14,63.1906,64.4162,9.16,97,93,7.09
334,Chapais,CA,2022-11-20 17:14:14,49.7834,-74.8492,17.38,91,100,12.33
335,Koulikoro,ML,2022-11-20 17:14:14,14.0,-7.75,90.16,15,92,8.19
336,Tyukhtet,RU,2022-11-20 17:14:15,56.5389,89.3011,6.71,90,100,13.24
337,Sorong,ID,2022-11-20 17:14:15,-0.8833,131.25,76.55,90,98,5.66
338,Iskateley,RU,2022-11-20 17:14:16,67.6803,53.1512,33.53,98,100,14.05
339,Adrar,MR,2022-11-20 17:14:16,20.5022,-10.0711,82.54,10,0,7.52
340,Vyartsilya,RU,2022-11-20 17:14:17,62.1764,30.693,26.62,100,6,5.1
341,Usinsk,RU,2022-11-20 17:14:17,65.9939,57.5281,32.54,98,100,19.46
342,Chuy,UY,2022-11-20 17:14:17,-33.6971,-53.4616,81.93,54,38,10.67
343,Lobito,AO,2022-11-20 17:14:18,-12.3481,13.5456,77.4,80,21,8.93
344,Newport,GB,2022-11-20 17:14:18,51.5877,-2.9984,50.83,79,35,16.49
345,Igede,NG,2022-11-20 17:14:19,10.0544,5.9416,88.05,24,6,2.98
346,Ous,RU,2022-11-20 17:14:19,60.9058,61.5186,6.96,94,68,4.23
347,Ovsyanka,RU,2022-11-20 17:14:19,55.9575,92.5519,6.22,71,94,9.24
348,Bereda,ES,2022-11-20 17:14:20,43.2686,-7.5406,57.58,100,100,3.6
349,Andilamena,MG,2022-11-20 17:14:20,-17.0167,48.5833,71.8,74,75,2.35
350,Moussoro,TD,2022-11-20 17:14:21,13.6408,16.4901,85.35,13,98,9.53
351,San Patricio,US,2022-11-20 17:14:21,28.017,-97.5169,51.66,67,100,10.69
352,Touros,BR,2022-11-20 17:14:21,-5.1989,-35.4608,84.78,61,45,16.51
353,Soderhamn,SE,2022-11-20 17:14:22,61.3037,17.0592,32.95,95,100,14.7
354,Newport News,US,2022-11-20 17:14:22,36.9788,-76.428,45.99,34,0,14.97
355,Awbari,LY,2022-11-20 17:14:23,26.5921,12.7805,69.04,24,56,8.52
356,Voyvozh,RU,2022-11-20 17:14:23,62.892,54.9635,19.78,97,97,5.03
357,Rocha,UY,2022-11-20 17:14:23,-34.4833,-54.3333,88.99,41,74,9.66
358,Samarai,PG,2022-11-20 17:14:24,-10.6167,150.6667,82.99,78,30,11.43
359,Coihaique,CL,2022-11-20 17:14:25,-45.5752,-72.0662,57.81,44,20,5.75
360,Mahebourg,MU,2022-11-20 17:14:25,-20.4081,57.7,76.24,69,21,6.78
361,Yar-Sale,RU,2022-11-20 17:14:25,66.8333,70.8333,2.23,96,100,17.52
362,Uberlandia,BR,2022-11-20 17:14:26,-18.9186,-48.2772,87.66,29,23,3.51
363,Bend,US,2022-11-20 17:12:56,44.0582,-121.3153,30.6,55,0,5.75
364,Tiarei,PF,2022-11-20 17:14:26,-17.5333,-149.3333,78.82,75,47,15.43
365,Culebra,PR,2022-11-20 17:14:27,18.303,-65.301,86.09,81,1,15.99
366,Gazli,UZ,2022-11-20 17:14:27,40.1333,63.45,50.86,53,0,5.77
367,Los Banos,PH,2022-11-20 17:14:27,14.1667,121.1833,79.79,90,98,6.76
368,Talhar,PK,2022-11-20 17:15:28,24.8833,68.8167,77.14,27,1,8.32
369,Zarubino,RU,2022-11-20 17:15:28,42.63,131.0922,45.45,75,100,5.97
370,Ipixuna,BR,2022-11-20 17:15:29,-1.7625,-48.8043,92.77,37,61,4.68
371,Coquimbo,CL,2022-11-20 17:15:29,-29.9533,-71.3436,64.13,72,40,12.66
372,Aklavik,CA,2022-11-20 17:15:29,68.2191,-135.0107,14.85,97,99,10.27
373,Chalons-En-Champagne,FR,2022-11-20 17:15:29,48.9539,4.3672,46.47,97,100,15.1
374,Luena,AO,2022-11-20 17:15:30,-11.7833,19.9167,69.03,69,56,3.53
375,Mehamn,NO,2022-11-20 17:15:30,71.0357,27.8492,37.35,81,75,2.3
376,Acapulco,MX,2022-11-20 17:10:33,16.8634,-99.8901,87.62,66,75,5.75
377,Meulaboh,ID,2022-11-20 17:15:31,4.1363,96.1285,76.55,87,100,3.44
378,Kawalu,ID,2022-11-20 17:15:31,-7.3817,108.2082,70.7,97,60,1.28
379,Bathsheba,BB,2022-11-20 17:15:31,13.2167,-59.5167,84.81,74,40,23.02
380,Dunedin,NZ,2022-11-20 17:15:32,-45.8742,170.5036,54.81,92,70,3.27
381,Potsdam,DE,2022-11-20 17:13:28,52.3989,13.0657,33.49,84,87,6.93
382,Channahon,US,2022-11-20 17:15:32,41.4295,-88.2287,30.63,50,0,11.5
383,Mehran,IR,2022-11-20 17:15:32,33.1222,46.1646,67.46,38,0,5.7
384,Paslek,PL,2022-11-20 17:15:33,54.0616,19.6593,30.56,97,100,12.71
385,Ixil,MX,2022-11-20 17:15:33,21.15,-89.4833,83.05,76,70,5.82
386,San Quintin,MX,2022-11-20 17:15:34,30.4833,-115.95,66.02,27,0,3.91
387,Progreso,MX,2022-11-20 17:15:34,21.2833,-89.6667,83.1,73,87,8.72
388,Petropavlovsk-Kamchatskiy,RU,2022-11-20 17:15:34,53.0452,158.6483,17.04,84,18,9.82
389,Dali,CN,2022-11-20 17:15:35,25.7,100.1833,47.14,60,3,4.79
390,Pangoa,PE,2022-11-20 17:15:35,-12.1167,-73.0,89.13,47,99,6.24
391,Vanavara,RU,2022-11-20 17:15:36,60.34,102.2797,9.82,95,100,6.38
392,Atyrau,KZ,2022-11-20 17:15:36,47.1167,51.8833,46.42,93,75,13.42
393,Lar,IN,2022-11-20 17:15:37,26.2039,83.9717,65.17,41,0,5.46
394,Beneditinos,BR,2022-11-20 17:15:37,-5.45,-42.3667,96.85,28,99,4.56
395,Vasterhaninge,SE,2022-11-20 17:15:37,59.1167,18.1,30.88,95,100,11.7
396,Tigil,RU,2022-11-20 17:15:38,57.8,158.6667,6.4,95,92,5.95
397,Aguimes,ES,2022-11-20 17:15:38,27.9054,-15.4461,72.66,68,75,25.32
398,Constitucion,CL,2022-11-20 17:15:39,-35.3333,-72.4167,66.58,48,0,18.34
399,Morant Bay,JM,2022-11-20 17:15:39,17.8815,-76.4093,87.42,66,49,12.95
400,Portland,US,2022-11-20 17:15:39,45.5234,-122.6762,40.41,65,0,11.01
401,Luang Prabang,LA,2022-11-20 17:15:40,19.8856,102.1347,71.13,90,50,0.16
402,Umm Lajj,SA,2022-11-20 17:15:41,25.0213,37.2685,80.87,67,0,2.26
403,Synya,RU,2022-11-20 17:15:41,65.3718,58.0387,30.15,98,100,7.76
404,Maningrida,AU,2022-11-20 17:15:42,-12.0667,134.2667,81.18,80,77,5.93
405,Maumere,ID,2022-11-20 17:15:42,-8.6199,122.2111,79.34,81,98,2.42
406,Gizo,SB,2022-11-20 17:15:43,-8.103,156.8419,82.24,72,45,10.71
407,Burgeo,CA,2022-11-20 17:15:43,47.6167,-57.6152,39.31,97,100,28.43
408,Fuxin,CN,2022-11-20 17:15:43,42.0156,121.6589,33.93,91,100,1.54
409,Kroya,ID,2022-11-20 17:15:44,-7.6331,109.2461,76.37,89,73,4.21
410,Kouango,CF,2022-11-20 17:11:20,4.9934,19.9619,81.63,38,100,2.86
411,Fare,PF,2022-11-20 17:15:44,-16.7,-151.0167,77.99,76,99,18.19
412,Changji,CN,2022-11-20 17:15:45,44.0167,87.3167,29.19,100,100,4.47
413,Tahta,EG,2022-11-20 17:15:45,26.7693,31.5021,74.37,21,2,6.51
414,Oleksandrivka,UA,2022-11-20 17:16:45,48.9634,32.2349,33.91,100,100,9.37
415,Mount Gambier,AU,2022-11-20 17:16:46,-37.8333,140.7667,43.25,86,96,17.43
416,Iracemapolis,BR,2022-11-20 17:16:46,-22.5806,-47.5186,90.37,28,3,2.17
417,Saint-Georges,GD,2022-11-20 17:16:46,12.0564,-61.7485,83.88,79,20,19.57
418,Alta Floresta,BR,2022-11-20 17:16:47,-9.8756,-56.0861,87.62,66,40,3.44
419,Bandar-E Lengeh,IR,2022-11-20 17:16:47,26.5579,54.8807,78.91,57,0,4.61
420,Margate,GB,2022-11-20 17:16:47,51.3813,1.3862,47.7,78,22,5.01
421,Ishigaki,JP,2022-11-20 17:16:48,24.3448,124.1572,71.73,88,20,6.91
422,Rawson,AR,2022-11-20 17:16:48,-43.3002,-65.1023,61.39,48,1,15.41
423,Liuzhou,CN,2022-11-20 17:16:48,24.3126,109.3892,70.29,73,60,3.02
424,Balkanabat,TM,2022-11-20 17:16:49,39.5108,54.3671,59.4,53,34,1.43
425,Grootfontein,NA,2022-11-20 17:16:49,-19.5667,18.1167,87.37,25,57,5.75
426,Anadyr,RU,2022-11-20 17:16:49,64.75,177.4833,-10.7,77,0,13.42
427,Camacha,PT,2022-11-20 17:16:49,33.0833,-16.3333,62.02,82,40,14.97
428,Alamosa,US,2022-11-20 17:12:04,37.4695,-105.87,21.18,63,0,3.44
429,Flin Flon,CA,2022-11-20 17:15:33,54.7682,-101.865,19.24,79,100,10.36
430,Ponta Do Sol,PT,2022-11-20 17:16:50,32.6667,-17.1,70.0,70,64,3.58
431,Matay,EG,2022-11-20 17:16:50,28.419,30.7792,73.0,28,24,5.82
432,Nieuw Amsterdam,SR,2022-11-20 17:16:51,5.8833,-55.0833,91.56,71,75,4.61
433,At-Bashi,KG,2022-11-20 17:16:51,41.1702,75.8106,19.62,74,21,3.42
434,Bonavista,CA,2022-11-20 17:16:51,48.6499,-53.1147,36.93,61,36,10.67
435,Aparecida Do Taboado,BR,2022-11-20 17:16:52,-20.0867,-51.0936,100.27,21,14,2.48
436,Kaniama,CD,2022-11-20 17:16:52,-7.5667,24.1833,73.17,76,92,0.51
437,Jacareacanga,BR,2022-11-20 17:16:52,-6.2222,-57.7528,92.73,43,34,3.87
438,Stryn,NO,2022-11-20 17:16:53,61.9045,6.7226,30.15,44,100,3.51
439,Tandil,AR,2022-11-20 17:12:46,-37.3217,-59.1332,60.69,91,100,11.77
440,Vila Franca Do Campo,PT,2022-11-20 17:16:53,37.7167,-25.4333,67.19,88,100,12.8
441,Spearfish,US,2022-11-20 17:16:53,44.4908,-103.8594,43.09,24,0,13.8
442,Goderich,CA,2022-11-20 17:16:54,43.7501,-81.7165,27.91,54,100,23.02
443,Bay Roberts,CA,2022-11-20 17:16:54,47.5999,-53.2648,40.51,77,65,8.99
444,Okha,RU,2022-11-20 17:14:14,53.5739,142.9478,32.05,83,99,12.17
445,Ust-Nera,RU,2022-11-20 17:16:55,64.5667,143.2,-14.06,98,100,3.91
446,Maragogi,BR,2022-11-20 17:14:45,-9.0122,-35.2225,83.07,59,54,10.07
447,Novoilinsk,RU,2022-11-20 17:16:55,51.6829,108.7143,0.99,99,38,2.21
448,Taltal,CL,2022-11-20 17:16:55,-25.4,-70.4833,65.64,72,25,5.93
449,Kamina,CD,2022-11-20 17:16:55,-8.7386,24.9906,73.2,73,82,0.98
450,Kloulklubed,PW,2022-11-20 17:16:56,7.0419,134.2556,75.7,76,50,7.63
451,Ngunguru,NZ,2022-11-20 17:16:56,-35.6167,174.5,59.0,91,81,9.06
452,Roma,US,2022-11-20 17:16:56,43.2128,-75.4557,30.72,91,100,20.71
453,Nantucket,US,2022-11-20 17:16:57,41.2835,-70.0995,42.91,37,40,19.57
454,Mahibadhoo,MV,2022-11-20 17:16:57,3.7833,72.9667,81.81,78,85,15.28
455,Xuddur,SO,2022-11-20 17:16:57,4.1213,43.8894,81.99,54,75,11.48
456,Batemans Bay,AU,2022-11-20 17:16:58,-35.7167,150.1833,63.1,58,0,18.81
457,Shache,CN,2022-11-20 17:16:58,38.4167,77.2406,42.46,21,12,4.45
458,Dong Hoi,VN,2022-11-20 17:16:58,17.4833,106.6,74.73,90,99,4.92
459,Maldonado,UY,2022-11-20 17:17:59,-34.6667,-54.9167,92.59,34,94,7.31
460,Kasongo-Lunda,CD,2022-11-20 17:17:59,-6.4667,16.8167,75.31,87,76,3.15
461,Masumbwe,TZ,2022-11-20 17:17:59,-3.6333,32.1833,66.85,86,60,3.58
462,Ouadda,CF,2022-11-20 17:18:00,8.0777,22.4007,75.99,31,84,4.83
463,Malanje,AO,2022-11-20 17:18:00,-9.5402,16.341,70.09,80,52,5.28
464,Nhulunbuy,AU,2022-11-20 17:18:00,-12.2333,136.7667,81.21,78,58,0.0
465,Mersing,MY,2022-11-20 17:18:01,2.4312,103.8405,77.99,87,93,2.44
466,Grocka,RS,2022-11-20 17:18:01,44.6722,20.7175,43.02,95,100,7.67
467,Vostok,RU,2022-11-20 17:18:01,46.4856,135.8833,18.48,98,81,4.56
468,Palpa,PE,2022-11-20 17:18:02,-14.5336,-75.1856,86.74,29,79,8.52
469,Sola,VU,2022-11-20 17:18:02,-13.8833,167.55,81.9,74,39,8.72
470,Arlit,NE,2022-11-20 17:18:02,18.7369,7.3853,82.71,10,61,7.96
471,Palasa,IN,2022-11-20 17:18:03,18.7667,84.4167,72.46,57,73,6.24
472,Road Town,VG,2022-11-20 17:18:03,18.4167,-64.6167,86.09,79,40,11.5
473,Pacific Grove,US,2022-11-20 17:18:03,36.6177,-121.9166,61.45,49,0,1.99
474,Souillac,MU,2022-11-20 17:18:04,-20.5167,57.5167,75.58,73,75,9.22
475,Hobyo,SO,2022-11-20 17:18:04,5.3505,48.5268,81.55,74,23,14.45
476,Batticaloa,LK,2022-11-20 17:18:04,7.7102,81.6924,76.66,80,14,12.08
477,Laguna,US,2022-11-20 17:18:05,38.421,-121.4238,57.63,67,0,0.0
478,Tokat,TR,2022-11-20 17:18:05,40.4167,36.5833,49.86,55,93,5.28
479,Lavrentiya,RU,2022-11-20 17:18:05,65.5833,-171.0,17.4,88,100,13.69
480,Ropczyce,PL,2022-11-20 17:18:06,50.0523,21.6089,30.11,92,23,4.12
481,Omsukchan,RU,2022-11-20 17:18:06,62.5333,155.8,-13.32,79,11,2.84
482,Bafut,CM,2022-11-20 17:18:07,6.0833,10.1,72.79,53,97,1.05
483,General Roca,AR,2022-11-20 17:18:07,-39.0333,-67.5833,71.06,22,0,1.01
484,Mweka,CD,2022-11-20 17:18:07,-4.85,21.5667,76.3,67,54,1.74
485,Evensk,RU,2022-11-20 17:18:08,61.95,159.2333,-7.73,77,5,6.96
486,Shenjiamen,CN,2022-11-20 17:18:08,29.9576,122.298,61.43,77,0,6.49
487,Inirida,CO,2022-11-20 17:18:08,3.8653,-67.9239,87.35,68,48,0.56
488,Mayo,US,2022-11-20 17:18:09,38.8876,-76.5119,38.17,34,0,13.8
489,Tual,ID,2022-11-20 17:18:09,-5.6667,132.75,83.79,68,100,2.91
490,Whitehaven,GB,2022-11-20 17:18:09,54.549,-3.5841,42.66,100,47,1.01
491,Dunmore Town,BS,2022-11-20 17:18:10,25.5,-76.65,80.58,67,25,10.0
492,Varnavino,RU,2022-11-20 17:18:10,57.4035,45.0916,17.26,77,98,2.77
493,Kutum,SD,2022-11-20 17:18:10,14.2,24.6667,71.17,15,4,9.73
494,Soyo,AO,2022-11-20 17:18:11,-6.1349,12.3689,78.24,80,59,9.01
495,Mangrol,IN,2022-11-20 17:18:11,21.1167,70.1167,76.21,51,0,1.43
496,Turukhansk,RU,2022-11-20 17:18:12,65.8167,87.9833,-4.99,92,100,5.66
497,Fort Frances,CA,2022-11-20 17:18:12,48.5999,-93.4003,21.16,77,100,6.91
498,Kambove,CD,2022-11-20 17:18:12,-10.8764,26.5969,67.86,76,59,1.68
499,Muyezerskiy,RU,2022-11-20 17:18:13,63.9333,31.65,18.12,95,5,2.08
500,Avera,US,2022-11-20 17:18:13,33.194,-82.5271,46.54,32,100,7.27
501,Oyugis,KE,2022-11-20 17:18:13,-0.509,34.7358,62.22,94,93,4.54
502,Salalah,OM,2022-11-20 17:16:24,17.0151,54.0924,80.69,61,20,4.61
503,Veraval,IN,2022-11-20 17:18:14,20.9,70.3667,75.87,48,2,3.44
504,Katobu,ID,2022-11-20 17:18:14,-4.9408,122.5276,76.06,92,100,2.01
505,Broken Hill,AU,2022-11-20 17:18:14,-31.95,141.4333,56.28,54,78,17.94
506,Mecca,SA,2022-11-20 17:18:52,21.4267,39.8261,80.69,53,2,2.95
507,Husavik,IS,2022-11-20 17:19:15,66.0449,-17.3389,42.82,83,97,11.72
508,Ulladulla,AU,2022-11-20 17:19:16,-35.35,150.4667,61.16,48,10,16.06
509,Niesky,DE,2022-11-20 17:19:16,51.2924,14.8211,32.22,89,57,6.35
510,Vitry-Le-Francois,FR,2022-11-20 17:19:16,48.7333,4.5833,45.46,97,100,15.59
511,Vacaville,US,2022-11-20 17:18:08,38.3566,-121.9877,54.97,45,0,10.36
512,Guanambi,BR,2022-11-20 17:19:17,-14.2233,-42.7814,84.79,46,100,0.63
513,Richards Bay,ZA,2022-11-20 17:19:17,-28.783,32.0377,66.25,69,45,5.86
514,Bulgan,MN,2022-11-20 17:19:17,48.8125,103.5347,9.66,75,21,1.97
515,Moorhead,US,2022-11-20 17:19:18,46.8739,-96.7676,18.99,74,0,6.91
516,Bozova,TR,2022-11-20 17:19:18,37.3625,38.5267,58.12,64,18,1.41
517,Sembe,CG,2022-11-20 17:19:18,1.6481,14.5806,73.17,91,68,2.46
518,Plettenberg Bay,ZA,2022-11-20 17:19:19,-34.0527,23.3716,61.32,72,51,4.0
519,Port Keats,AU,2022-11-20 17:19:19,-14.25,129.55,81.68,78,100,6.6
520,Cartagena,CO,2022-11-20 17:15:31,10.3997,-75.5144,87.42,74,40,9.22
521,Pangkalanbuun,ID,2022-11-20 17:19:20,-2.6833,111.6167,74.41,98,100,2.62
522,Mareeba,AU,2022-11-20 17:19:20,-17.0,145.4333,74.44,92,59,1.12
523,Ketchikan,US,2022-11-20 17:19:20,55.3422,-131.6461,40.55,95,100,3.47
524,Huilong,CN,2022-11-20 17:19:21,31.8111,121.655,61.21,86,83,5.73
525,Vila Velha,BR,2022-11-20 17:19:21,-20.3297,-40.2925,78.75,72,75,8.05
526,Bougouni,ML,2022-11-20 17:19:22,11.417,-7.479,91.4,21,90,4.34
527,Roebourne,AU,2022-11-20 17:19:22,-20.7833,117.1333,80.89,31,86,7.02
528,Huandacareo,MX,2022-11-20 17:19:22,19.9833,-101.2833,66.15,60,97,6.49
529,Antofagasta,CL,2022-11-20 17:19:23,-23.65,-70.4,67.28,67,23,9.37
530,Erzin,TR,2022-11-20 17:19:23,36.9559,36.2,64.33,59,53,3.62
531,Mikkeli,FI,2022-11-20 17:19:24,61.6886,27.2723,26.71,93,100,6.91
532,Santa Rosa,PH,2022-11-20 17:19:24,14.3122,121.1114,81.09,85,97,8.46
533,Derzhavinsk,KZ,2022-11-20 17:19:25,51.1,66.3167,13.44,95,28,5.91
534,Rawah,IQ,2022-11-20 17:19:25,34.4816,41.9093,63.5,52,0,7.96
535,Wau,SS,2022-11-20 17:19:25,7.7029,27.9953,83.28,25,63,3.13
536,Gonbad-E Qabus,IR,2022-11-20 17:19:25,37.25,55.1672,56.35,71,0,4.61
537,Tianpeng,CN,2022-11-20 17:19:26,30.9866,103.9393,59.47,72,100,4.47
538,Limulunga,ZM,2022-11-20 17:19:26,-15.0969,23.1376,83.46,19,14,1.54
539,Asau,RO,2022-11-20 17:19:27,46.4333,26.4,33.28,100,100,0.94
540,Udachnyy,RU,2022-11-20 17:19:27,66.4167,112.4,-24.66,99,96,3.44
541,Salaverry,PE,2022-11-20 17:19:27,-8.2333,-78.9667,66.58,85,65,8.12
542,Rognan,NO,2022-11-20 17:19:28,67.0953,15.3878,41.14,50,0,8.9
543,Waingapu,ID,2022-11-20 17:19:28,-9.6567,120.2641,80.17,82,100,1.5
544,Vao,NC,2022-11-20 17:19:28,-22.6667,167.4833,73.45,78,89,8.93
545,Kem,RU,2022-11-20 17:19:29,64.9555,34.5793,20.52,94,15,3.47
546,Peniche,PT,2022-11-20 17:19:29,39.3558,-9.3811,63.09,94,77,13.13
547,Pizarro,CO,2022-11-20 17:19:29,4.9533,-77.366,75.04,95,100,11.95
548,Kaeo,NZ,2022-11-20 17:19:30,-35.1,173.7833,61.32,96,99,9.28
549,General Macarthur,PH,2022-11-20 17:19:30,11.2464,125.5394,76.21,96,100,2.19
550,Turayf,SA,2022-11-20 17:19:30,31.6725,38.6637,57.45,67,0,4.61
551,Zastron,ZA,2022-11-20 17:19:31,-30.3023,27.084,64.58,16,11,8.14
552,Lazurne,UA,2022-11-20 17:20:31,46.084,32.5295,58.17,87,100,19.48
553,Sulphur,US,2022-11-20 17:20:31,30.2366,-93.3774,53.58,48,0,16.11
554,Padang,ID,2022-11-20 17:20:32,-0.9492,100.3543,76.28,87,92,4.18
555,Menzelinsk,RU,2022-11-20 17:20:32,55.7271,53.1026,12.96,93,13,3.56
556,Ures,MX,2022-11-20 17:20:32,29.4333,-110.4,65.57,31,0,8.66
557,Zhangye,CN,2022-11-20 17:20:33,38.9342,100.4517,35.8,27,100,4.54
558,Sur,OM,2022-11-20 17:20:33,22.5667,59.5289,77.65,61,0,2.71
559,Cururupu,BR,2022-11-20 17:20:33,-1.8283,-44.8683,90.57,45,59,7.31
560,Smithers,CA,2022-11-20 17:20:33,54.7804,-127.1743,21.52,93,100,2.3
561,Yulara,AU,2022-11-20 17:20:34,-25.2406,130.9889,71.4,23,96,13.98
562,Estelle,US,2022-11-20 17:20:34,29.8458,-90.1067,52.0,55,75,12.66
563,Cauquenes,CL,2022-11-20 17:20:34,-35.9671,-72.3225,75.9,14,0,13.06
564,Pauini,BR,2022-11-20 17:20:35,-7.7136,-66.9764,96.12,37,78,4.7
565,Qiongshan,CN,2022-11-20 17:20:35,20.0058,110.3542,76.98,83,40,8.95
566,Campoverde,PE,2022-11-20 17:20:35,-8.4753,-74.8058,89.29,35,75,3.15
567,Opuwo,NA,2022-11-20 17:20:36,-18.0607,13.84,83.91,32,87,12.41
568,Griffith,US,2022-11-20 17:20:36,41.5284,-87.4237,28.11,47,75,11.5
569,Poronaysk,RU,2022-11-20 17:20:36,49.2167,143.1167,41.56,89,100,14.88
570,College,US,2022-11-20 17:20:37,64.8569,-147.8028,15.58,88,100,0.0
571,Turan,VN,2022-11-20 17:20:37,16.0678,108.2208,80.58,78,40,5.75
572,Lodja,CD,2022-11-20 17:20:37,-3.4833,23.4333,78.6,65,94,2.75
573,Ust-Kuyga,RU,2022-11-20 17:20:38,70.0167,135.6,-14.28,99,98,1.07
574,Lampa,CL,2022-11-20 17:20:38,-33.2833,-70.9,83.07,21,0,16.11
575,Tautira,PF,2022-11-20 17:20:38,-17.7333,-149.15,76.41,75,46,14.5
576,Raton,US,2022-11-20 17:20:38,36.9034,-104.4391,39.54,47,0,5.75
577,Tsumeb,NA,2022-11-20 17:20:39,-19.2333,17.7167,92.19,17,75,4.36
578,Cap Malheureux,MU,2022-11-20 17:20:39,-19.9842,57.6142,75.47,68,5,1.01
579,Gafanha Da Encarnacao,PT,2022-11-20 17:20:39,40.6181,-8.733,63.05,94,73,9.24
580,Lapa,BR,2022-11-20 17:20:40,-25.7697,-49.7158,80.28,42,25,3.58
581,Zyryanskoye,RU,2022-11-20 17:20:40,56.8306,86.6258,8.47,91,100,14.5
582,Kyra,RU,2022-11-20 17:20:40,49.5776,111.9753,-0.72,95,11,3.51
583,Helong,CN,2022-11-20 17:20:41,42.5397,128.9972,34.56,96,79,0.76
584,Sangin,AF,2022-11-20 17:20:41,32.0728,64.8359,58.89,35,19,3.2
585,Bousso,TD,2022-11-20 17:20:41,10.4795,16.7117,86.47,19,15,5.91
586,Kupang,ID,2022-11-20 17:20:42,-10.1667,123.5833,77.58,100,75,4.61
587,Mlonggo,ID,2022-11-20 17:20:42,-6.5333,110.7,79.68,82,32,2.46
588,Merke,KZ,2022-11-20 17:20:42,42.8728,73.1786,43.18,77,92,3.94
589,Gigmoto,PH,2022-11-20 17:20:43,13.7796,124.39,79.5,91,99,8.16
590,Yurino,RU,2022-11-20 17:20:43,56.2942,46.3039,23.7,94,100,2.55
591,Dubbo,AU,2022-11-20 17:20:43,-32.25,148.6167,48.33,93,68,4.61
592,Karratha,AU,2022-11-20 17:20:43,-20.7377,116.8463,81.63,29,86,6.46
593,Verkhnyaya Inta,RU,2022-11-20 17:20:44,65.9811,60.3094,26.87,97,100,19.28
594,Foso,GH,2022-11-20 17:20:44,5.7012,-1.2866,77.07,87,91,4.72
595,Hualmay,PE,2022-11-20 17:20:44,-11.0964,-77.6139,69.24,72,100,8.48
596,Sikonge,TZ,2022-11-20 17:20:45,-5.6333,32.7667,67.87,77,69,4.68
597,Yichun,CN,2022-11-20 17:20:45,47.7,128.9,16.25,58,20,5.1
598,Deputatskiy,RU,2022-11-20 17:20:45,69.3,139.9,-21.33,92,95,1.07
599,Yantzaza,EC,2022-11-20 17:20:46,-3.8278,-78.7594,84.22,59,15,4.18
600,Port Lincoln,AU,2022-11-20 17:19:36,-34.7333,135.8667,53.22,63,97,24.2
601,Cooma,AU,2022-11-20 17:21:46,-36.2333,149.1333,42.82,92,45,12.97
602,Haines Junction,CA,2022-11-20 17:21:46,60.7522,-137.5108,17.55,93,100,3.44
603,Tanete,ID,2022-11-20 17:21:47,-3.9443,119.7848,75.33,88,99,1.16
604,Gonzales,US,2022-11-20 17:21:45,30.2385,-90.9201,53.11,61,100,3.0
605,Rio Gallegos,AR,2022-11-20 17:21:47,-51.6226,-69.2181,64.45,20,0,24.16
606,Svetlogorsk,BY,2022-11-20 17:21:47,52.6333,29.7333,25.57,96,100,9.8
607,Prado,BR,2022-11-20 17:21:48,-17.3411,-39.2208,73.99,89,94,6.26
608,Petropavl,KZ,2022-11-20 17:21:48,54.8753,69.1628,12.06,86,83,9.4
609,Muros,ES,2022-11-20 17:21:48,42.7762,-9.0603,61.09,88,96,7.72
610,Silver City,US,2022-11-20 17:21:39,32.7701,-108.2803,41.68,62,0,4.61
611,Bilma,NE,2022-11-20 17:21:49,18.6853,12.9164,76.28,15,54,4.45
612,Bambanglipuro,ID,2022-11-20 17:21:49,-7.95,110.2833,76.15,89,51,8.75
613,Palmer,US,2022-11-20 17:21:32,42.1584,-72.3287,36.63,33,40,23.02
614,Port Augusta,AU,2022-11-20 17:19:42,-32.5,137.7667,55.49,61,61,12.37
615,Fez,MA,2022-11-20 17:21:34,34.0372,-4.9998,61.05,63,0,3.44
616,Solnechnyy,RU,2022-11-20 17:21:50,50.7214,136.6319,20.21,88,16,4.76
617,Los Llanos De Aridane,ES,2022-11-20 17:21:50,28.6585,-17.9182,68.13,69,75,16.11
618,Wyndham,US,2022-11-20 17:21:50,37.6985,-77.6125,43.02,28,0,13.8
619,Yenangyaung,MM,2022-11-20 17:21:50,20.4667,94.8833,73.65,50,8,4.47
620,Gimli,CA,2022-11-20 17:21:51,50.6336,-96.9907,17.62,73,94,5.75
621,Moerai,PF,2022-11-20 17:21:51,-22.4333,-151.3333,71.49,70,17,16.87
622,Colac,AU,2022-11-20 17:21:51,-38.3333,143.5833,40.17,94,98,16.96
623,Chara,RU,2022-11-20 17:21:52,56.9064,118.2631,-0.29,89,100,0.78
624,Berdigestyakh,RU,2022-11-20 17:21:52,62.0989,126.6992,-28.17,100,100,2.42
625,Iwanai,JP,2022-11-20 17:21:52,42.9744,140.5089,47.7,96,100,5.97
626,Phek,IN,2022-11-20 17:21:53,25.6667,94.5,44.51,84,61,1.39
627,Mildura,AU,2022-11-20 17:21:53,-34.2,142.15,50.07,75,27,18.68
628,Wana,PK,2022-11-20 17:21:53,32.2989,69.5725,53.08,48,12,1.57
629,Zubova Polyana,RU,2022-11-20 17:21:54,54.0771,42.8372,30.02,98,100,2.57
630,Maroua,CM,2022-11-20 17:21:54,10.591,14.3159,84.74,20,42,6.85
631,Lima,PE,2022-11-20 17:20:57,-12.0432,-77.0282,64.65,72,75,6.91
632,Ratnagiri,IN,2022-11-20 17:21:54,16.9833,73.3,72.12,56,80,6.11
633,Novyy Urengoy,RU,2022-11-20 17:21:55,66.0833,76.6333,-10.16,94,83,6.02
634,Chilca,PE,2022-11-20 17:21:55,-12.5211,-76.7372,66.52,78,61,9.19
635,Marsa Matruh,EG,2022-11-20 17:21:56,31.3525,27.2453,69.4,66,100,8.28
636,Cairns,AU,2022-11-20 17:21:56,-16.9167,145.7667,79.07,92,59,0.0
637,Mumford,GH,2022-11-20 17:21:56,5.2618,-0.759,81.19,77,89,11.14
638,Piripiri,BR,2022-11-20 17:21:57,-4.2733,-41.7769,100.6,22,72,2.68
639,Taksimo,RU,2022-11-20 17:21:57,56.3444,114.8794,-8.1,85,65,1.86
640,Ostrovnoy,RU,2022-11-20 17:21:57,68.0531,39.5131,36.21,89,100,11.23
641,Kismayo,SO,2022-11-20 17:21:58,-0.3582,42.5454,79.52,82,76,9.98
642,Tanabe,JP,2022-11-20 17:21:58,33.7333,135.3667,61.3,91,100,8.05
643,Sumter,US,2022-11-20 17:19:04,28.7086,-82.0831,54.09,82,100,12.33
644,Sehwan,PK,2022-11-20 17:21:58,26.4279,67.863,74.77,29,0,5.91
645,Saint-Pierre,RE,2022-11-20 17:22:59,-21.3393,55.4781,76.68,69,100,4.61
646,Vitim,RU,2022-11-20 17:22:59,59.4511,112.5578,-23.55,100,63,1.34
647,Kaka,TM,2022-11-20 17:22:59,37.3482,59.6143,57.49,57,38,1.48
648,Nouadhibou,MR,2022-11-20 17:22:59,20.931,-17.0347,69.78,73,0,16.11
649,Makokou,GA,2022-11-20 17:23:00,0.5738,12.8642,71.69,96,94,2.48
650,Leshukonskoye,RU,2022-11-20 17:23:00,64.8989,45.7622,29.08,96,100,4.9
651,Atocha,BO,2022-11-20 17:23:00,-20.9333,-66.2333,66.51,4,1,13.11
652,Creston,US,2022-11-20 17:23:01,41.0586,-94.3614,36.72,60,0,19.57
653,Nan,TH,2022-11-20 17:23:01,18.8333,100.6667,69.62,97,32,1.01
654,Pointe Michel,DM,2022-11-20 17:23:01,15.25,-61.3833,86.94,51,75,2.3
655,Hovd,MN,2022-11-20 17:23:02,48.0056,91.6419,23.18,57,54,6.91
656,Tokur,RU,2022-11-20 17:23:02,53.1333,132.9,16.5,96,100,3.96
657,Palu,ID,2022-11-20 17:23:02,-0.8917,119.8707,77.13,94,100,2.68
658,Sorland,NO,2022-11-20 17:23:03,67.667,12.6934,44.46,58,0,8.14
659,Silifke,TR,2022-11-20 17:23:03,36.3778,33.9344,65.21,74,97,3.24
660,Tias,ES,2022-11-20 17:23:03,28.9611,-13.645,69.48,64,0,23.02
661,Birin,NP,2022-11-20 17:23:04,26.8865,88.0718,51.42,76,0,4.45
662,Corinto,GR,2022-11-20 17:23:04,37.9407,22.9573,71.89,78,99,4.72
663,Peru,US,2022-11-20 17:23:04,40.7537,-86.0689,27.21,55,0,11.5
664,Beyneu,KZ,2022-11-20 17:23:05,45.3167,55.2,49.21,71,100,9.75
665,Chelno-Vershiny,RU,2022-11-20 17:23:05,54.4333,51.1,25.95,96,100,4.27
666,Imbituba,BR,2022-11-20 17:23:05,-28.24,-48.6703,76.66,65,26,21.59
667,Ibra,OM,2022-11-20 17:23:06,22.6906,58.5334,72.9,46,0,4.0
668,Ucluelet,CA,2022-11-20 17:23:06,48.9329,-125.5528,43.09,77,85,8.48
669,Hit,IQ,2022-11-20 17:22:30,33.6416,42.8251,65.86,48,0,10.42
670,Russell,US,2022-11-20 17:23:07,32.3502,-85.1999,45.68,36,0,8.05
671,Barcelona,ES,2022-11-20 17:21:20,41.3888,2.159,58.69,63,20,4.61
672,Hamilton,US,2022-11-20 17:18:58,39.1834,-84.5333,31.21,38,0,5.75
673,Sulangan,PH,2022-11-20 17:23:07,11.1373,123.7228,82.09,78,70,7.29
674,Hailar,CN,2022-11-20 17:23:08,49.2,119.7,2.39,92,5,7.76
675,Jizan,SA,2022-11-20 17:23:08,17.3333,42.6667,85.14,69,11,3.33
676,Birao,CF,2022-11-20 17:23:09,10.2849,22.7882,79.16,21,29,5.93
